{
"type": "FeatureCollection",
"name": "afternoon off peak time",
"crs": { "type": "name", "properties": { "name": "urn:ogc:def:crs:OGC:1.3:CRS84" } },
"features": [
{ "type": "Feature", "properties": { "name": "雅祥公園", "geometry\/coordinates\/0": 121.57221, "geometry\/coordinates\/1": 25.04775 }, "geometry": { "type": "Point", "coordinates": [ 121.57221, 25.04775 ] } },
{ "type": "Feature", "properties": { "name": "松山車站(八德)", "geometry\/coordinates\/0": 121.576598, "geometry\/coordinates\/1": 25.050168 }, "geometry": { "type": "Point", "coordinates": [ 121.576598, 25.050168 ] } },
{ "type": "Feature", "properties": { "name": "外雙溪(故宮)", "geometry\/coordinates\/0": 121.5472394, "geometry\/coordinates\/1": 25.0967086 }, "geometry": { "type": "Point", "coordinates": [ 121.5472394, 25.0967086 ] } },
{ "type": "Feature", "properties": { "name": "西湖國中", "geometry\/coordinates\/0": 121.5656, "geometry\/coordinates\/1": 25.08577 }, "geometry": { "type": "Point", "coordinates": [ 121.5656, 25.08577 ] } },
{ "type": "Feature", "properties": { "name": "國防醫學中心", "geometry\/coordinates\/0": 121.58987, "geometry\/coordinates\/1": 25.07103715 }, "geometry": { "type": "Point", "coordinates": [ 121.58987, 25.07103715 ] } },
{ "type": "Feature", "properties": { "name": "大湖", "geometry\/coordinates\/0": 121.6000154, "geometry\/coordinates\/1": 25.08478664 }, "geometry": { "type": "Point", "coordinates": [ 121.6000154, 25.08478664 ] } },
{ "type": "Feature", "properties": { "name": "週美里一", "geometry\/coordinates\/0": 121.581993, "geometry\/coordinates\/1": 25.056132 }, "geometry": { "type": "Point", "coordinates": [ 121.581993, 25.056132 ] } },
{ "type": "Feature", "properties": { "name": "方濟中學", "geometry\/coordinates\/0": 121.5900055, "geometry\/coordinates\/1": 25.07696845 }, "geometry": { "type": "Point", "coordinates": [ 121.5900055, 25.07696845 ] } },
{ "type": "Feature", "properties": { "name": "金山潮州街口", "geometry\/coordinates\/0": 121.526085, "geometry\/coordinates\/1": 25.028247 }, "geometry": { "type": "Point", "coordinates": [ 121.526085, 25.028247 ] } },
{ "type": "Feature", "properties": { "name": "臺北車站(忠孝)", "geometry\/coordinates\/0": 121.5171831, "geometry\/coordinates\/1": 25.04647723 }, "geometry": { "type": "Point", "coordinates": [ 121.5171831, 25.04647723 ] } },
{ "type": "Feature", "properties": { "name": "民權復興路口", "geometry\/coordinates\/0": 121.5446524, "geometry\/coordinates\/1": 25.06222037 }, "geometry": { "type": "Point", "coordinates": [ 121.5446524, 25.06222037 ] } },
{ "type": "Feature", "properties": { "name": "捷運忠孝新生站", "geometry\/coordinates\/0": 121.532693, "geometry\/coordinates\/1": 25.040288 }, "geometry": { "type": "Point", "coordinates": [ 121.532693, 25.040288 ] } },
{ "type": "Feature", "properties": { "name": "潭美國小(舊宗)", "geometry\/coordinates\/0": 121.580495, "geometry\/coordinates\/1": 25.058297 }, "geometry": { "type": "Point", "coordinates": [ 121.580495, 25.058297 ] } },
{ "type": "Feature", "properties": { "name": "民權敦化路口", "geometry\/coordinates\/0": 121.5477304, "geometry\/coordinates\/1": 25.06203825 }, "geometry": { "type": "Point", "coordinates": [ 121.5477304, 25.06203825 ] } },
{ "type": "Feature", "properties": { "name": "捷運行天宮站", "geometry\/coordinates\/0": 121.5331557, "geometry\/coordinates\/1": 25.0598422 }, "geometry": { "type": "Point", "coordinates": [ 121.5331557, 25.0598422 ] } },
{ "type": "Feature", "properties": { "name": "捷運昆陽站", "geometry\/coordinates\/0": 121.593165, "geometry\/coordinates\/1": 25.050346 }, "geometry": { "type": "Point", "coordinates": [ 121.593165, 25.050346 ] } },
{ "type": "Feature", "properties": { "name": "捷運市政府站", "geometry\/coordinates\/0": 121.56629, "geometry\/coordinates\/1": 25.04124 }, "geometry": { "type": "Point", "coordinates": [ 121.56629, 25.04124 ] } },
{ "type": "Feature", "properties": { "name": "玉成里", "geometry\/coordinates\/0": 121.5809119, "geometry\/coordinates\/1": 25.05092253 }, "geometry": { "type": "Point", "coordinates": [ 121.5809119, 25.05092253 ] } },
{ "type": "Feature", "properties": { "name": "將軍嶺", "geometry\/coordinates\/0": 121.58972, "geometry\/coordinates\/1": 25.073372 }, "geometry": { "type": "Point", "coordinates": [ 121.58972, 25.073372 ] } },
{ "type": "Feature", "properties": { "name": "三總內湖站", "geometry\/coordinates\/0": 121.592095, "geometry\/coordinates\/1": 25.071852 }, "geometry": { "type": "Point", "coordinates": [ 121.592095, 25.071852 ] } },
{ "type": "Feature", "properties": { "name": "中正橋頭", "geometry\/coordinates\/0": 121.5162239, "geometry\/coordinates\/1": 25.01604284 }, "geometry": { "type": "Point", "coordinates": [ 121.5162239, 25.01604284 ] } },
{ "type": "Feature", "properties": { "name": "振興醫院", "geometry\/coordinates\/0": 121.5219245, "geometry\/coordinates\/1": 25.11764743 }, "geometry": { "type": "Point", "coordinates": [ 121.5219245, 25.11764743 ] } },
{ "type": "Feature", "properties": { "name": "國泰醫院", "geometry\/coordinates\/0": 121.6649754, "geometry\/coordinates\/1": 25.0716573 }, "geometry": { "type": "Point", "coordinates": [ 121.6649754, 25.0716573 ] } },
{ "type": "Feature", "properties": { "name": "重慶南路一段", "geometry\/coordinates\/0": 121.5131649, "geometry\/coordinates\/1": 25.04469193 }, "geometry": { "type": "Point", "coordinates": [ 121.5131649, 25.04469193 ] } },
{ "type": "Feature", "properties": { "name": "文化大學", "geometry\/coordinates\/0": 121.5465243, "geometry\/coordinates\/1": 25.13887908 }, "geometry": { "type": "Point", "coordinates": [ 121.5465243, 25.13887908 ] } },
{ "type": "Feature", "properties": { "name": "陽明山國家公園管理處", "geometry\/coordinates\/0": 121.54612, "geometry\/coordinates\/1": 25.1552 }, "geometry": { "type": "Point", "coordinates": [ 121.54612, 25.1552 ] } },
{ "type": "Feature", "properties": { "name": "陽明山", "geometry\/coordinates\/0": 121.5474217, "geometry\/coordinates\/1": 25.15249728 }, "geometry": { "type": "Point", "coordinates": [ 121.5474217, 25.15249728 ] } },
{ "type": "Feature", "properties": { "name": "捷運松江南京站", "geometry\/coordinates\/0": 121.5329812, "geometry\/coordinates\/1": 25.05228153 }, "geometry": { "type": "Point", "coordinates": [ 121.5329812, 25.05228153 ] } },
{ "type": "Feature", "properties": { "name": "長安松江路口", "geometry\/coordinates\/0": 121.532997, "geometry\/coordinates\/1": 25.04827366 }, "geometry": { "type": "Point", "coordinates": [ 121.532997, 25.04827366 ] } },
{ "type": "Feature", "properties": { "name": "光華商場", "geometry\/coordinates\/0": 121.5315442, "geometry\/coordinates\/1": 25.0456428 }, "geometry": { "type": "Point", "coordinates": [ 121.5315442, 25.0456428 ] } },
{ "type": "Feature", "properties": { "name": "長春松江路口", "geometry\/coordinates\/0": 121.533011, "geometry\/coordinates\/1": 25.05500621 }, "geometry": { "type": "Point", "coordinates": [ 121.533011, 25.05500621 ] } },
{ "type": "Feature", "properties": { "name": "湖興", "geometry\/coordinates\/0": 121.5906612, "geometry\/coordinates\/1": 25.06803087 }, "geometry": { "type": "Point", "coordinates": [ 121.5906612, 25.06803087 ] } },
{ "type": "Feature", "properties": { "name": "新益里", "geometry\/coordinates\/0": 121.566269, "geometry\/coordinates\/1": 25.062445 }, "geometry": { "type": "Point", "coordinates": [ 121.566269, 25.062445 ] } }
]
}
