{
"type": "FeatureCollection",
"name": "Rush hour",
"crs": { "type": "name", "properties": { "name": "urn:ogc:def:crs:OGC:1.3:CRS84" } },
"features": [
{ "type": "Feature", "properties": { "name": "西湖園", "geometry\/coordinates\/0": 121.5810066, "geometry\/coordinates\/1": 25.08468198 }, "geometry": { "type": "Point", "coordinates": [ 121.5810066, 25.08468198 ] } },
{ "type": "Feature", "properties": { "name": "濱江國中", "geometry\/coordinates\/0": 121.5601662, "geometry\/coordinates\/1": 25.0798188 }, "geometry": { "type": "Point", "coordinates": [ 121.5601662, 25.0798188 ] } },
{ "type": "Feature", "properties": { "name": "松山車站(八德)", "geometry\/coordinates\/0": 121.576598, "geometry\/coordinates\/1": 25.050168 }, "geometry": { "type": "Point", "coordinates": [ 121.576598, 25.050168 ] } },
{ "type": "Feature", "properties": { "name": "玉成里", "geometry\/coordinates\/0": 121.5809119, "geometry\/coordinates\/1": 25.05092253 }, "geometry": { "type": "Point", "coordinates": [ 121.5809119, 25.05092253 ] } },
{ "type": "Feature", "properties": { "name": "國泰醫院", "geometry\/coordinates\/0": 121.6649754, "geometry\/coordinates\/1": 25.0716573 }, "geometry": { "type": "Point", "coordinates": [ 121.6649754, 25.0716573 ] } },
{ "type": "Feature", "properties": { "name": "捷運市政府站", "geometry\/coordinates\/0": 121.56629, "geometry\/coordinates\/1": 25.04124 }, "geometry": { "type": "Point", "coordinates": [ 121.56629, 25.04124 ] } },
{ "type": "Feature", "properties": { "name": "汐科站南站", "geometry\/coordinates\/0": 121.6472189, "geometry\/coordinates\/1": 25.0628093 }, "geometry": { "type": "Point", "coordinates": [ 121.6472189, 25.0628093 ] } },
{ "type": "Feature", "properties": { "name": "時報廣場", "geometry\/coordinates\/0": 121.5821212, "geometry\/coordinates\/1": 25.06808488 }, "geometry": { "type": "Point", "coordinates": [ 121.5821212, 25.06808488 ] } },
{ "type": "Feature", "properties": { "name": "捷運忠孝新生站", "geometry\/coordinates\/0": 121.532693, "geometry\/coordinates\/1": 25.040288 }, "geometry": { "type": "Point", "coordinates": [ 121.532693, 25.040288 ] } },
{ "type": "Feature", "properties": { "name": "汐止", "geometry\/coordinates\/0": 121.6616891, "geometry\/coordinates\/1": 25.06917666 }, "geometry": { "type": "Point", "coordinates": [ 121.6616891, 25.06917666 ] } },
{ "type": "Feature", "properties": { "name": "捷運昆陽站", "geometry\/coordinates\/0": 121.593165, "geometry\/coordinates\/1": 25.050346 }, "geometry": { "type": "Point", "coordinates": [ 121.593165, 25.050346 ] } },
{ "type": "Feature", "properties": { "name": "九如里二", "geometry\/coordinates\/0": 121.6161708, "geometry\/coordinates\/1": 25.03500483 }, "geometry": { "type": "Point", "coordinates": [ 121.6161708, 25.03500483 ] } },
{ "type": "Feature", "properties": { "name": "錫安堂", "geometry\/coordinates\/0": 121.5495151, "geometry\/coordinates\/1": 25.14947573 }, "geometry": { "type": "Point", "coordinates": [ 121.5495151, 25.14947573 ] } },
{ "type": "Feature", "properties": { "name": "誠正國中", "geometry\/coordinates\/0": 121.6158659, "geometry\/coordinates\/1": 25.05180369 }, "geometry": { "type": "Point", "coordinates": [ 121.6158659, 25.05180369 ] } },
{ "type": "Feature", "properties": { "name": "中研新村", "geometry\/coordinates\/0": 121.615639, "geometry\/coordinates\/1": 25.045074 }, "geometry": { "type": "Point", "coordinates": [ 121.615639, 25.045074 ] } },
{ "type": "Feature", "properties": { "name": "中和派出所", "geometry\/coordinates\/0": 121.5027697, "geometry\/coordinates\/1": 24.99969546 }, "geometry": { "type": "Point", "coordinates": [ 121.5027697, 24.99969546 ] } },
{ "type": "Feature", "properties": { "name": "金龍寺", "geometry\/coordinates\/0": 121.586538, "geometry\/coordinates\/1": 25.08856804 }, "geometry": { "type": "Point", "coordinates": [ 121.586538, 25.08856804 ] } },
{ "type": "Feature", "properties": { "name": "自強隧道", "geometry\/coordinates\/0": 121.551896, "geometry\/coordinates\/1": 25.08586247 }, "geometry": { "type": "Point", "coordinates": [ 121.551896, 25.08586247 ] } },
{ "type": "Feature", "properties": { "name": "碧山岩", "geometry\/coordinates\/0": 121.59054, "geometry\/coordinates\/1": 25.085651 }, "geometry": { "type": "Point", "coordinates": [ 121.59054, 25.085651 ] } },
{ "type": "Feature", "properties": { "name": "南港高中", "geometry\/coordinates\/0": 121.5952331, "geometry\/coordinates\/1": 25.05295138 }, "geometry": { "type": "Point", "coordinates": [ 121.5952331, 25.05295138 ] } },
{ "type": "Feature", "properties": { "name": "新湖三路口(台北花市)", "geometry\/coordinates\/0": 121.577205, "geometry\/coordinates\/1": 25.063161 }, "geometry": { "type": "Point", "coordinates": [ 121.577205, 25.063161 ] } },
{ "type": "Feature", "properties": { "name": "民生國中", "geometry\/coordinates\/0": 121.5676949, "geometry\/coordinates\/1": 25.06018904 }, "geometry": { "type": "Point", "coordinates": [ 121.5676949, 25.06018904 ] } },
{ "type": "Feature", "properties": { "name": "新益里", "geometry\/coordinates\/0": 121.566269, "geometry\/coordinates\/1": 25.062445 }, "geometry": { "type": "Point", "coordinates": [ 121.566269, 25.062445 ] } },
{ "type": "Feature", "properties": { "name": "週美里一", "geometry\/coordinates\/0": 121.581993, "geometry\/coordinates\/1": 25.056132 }, "geometry": { "type": "Point", "coordinates": [ 121.581993, 25.056132 ] } },
{ "type": "Feature", "properties": { "name": "麗山高中(環山)", "geometry\/coordinates\/0": 121.5768304, "geometry\/coordinates\/1": 25.08405797 }, "geometry": { "type": "Point", "coordinates": [ 121.5768304, 25.08405797 ] } },
{ "type": "Feature", "properties": { "name": "環山路", "geometry\/coordinates\/0": 121.5717, "geometry\/coordinates\/1": 25.08607 }, "geometry": { "type": "Point", "coordinates": [ 121.5717, 25.08607 ] } },
{ "type": "Feature", "properties": { "name": "方濟中學", "geometry\/coordinates\/0": 121.5900055, "geometry\/coordinates\/1": 25.07696845 }, "geometry": { "type": "Point", "coordinates": [ 121.5900055, 25.07696845 ] } },
{ "type": "Feature", "properties": { "name": "汐止行政中心", "geometry\/coordinates\/0": 121.65913, "geometry\/coordinates\/1": 25.06478 }, "geometry": { "type": "Point", "coordinates": [ 121.65913, 25.06478 ] } },
{ "type": "Feature", "properties": { "name": "汐止農會", "geometry\/coordinates\/0": 121.657339, "geometry\/coordinates\/1": 25.063652 }, "geometry": { "type": "Point", "coordinates": [ 121.657339, 25.063652 ] } },
{ "type": "Feature", "properties": { "name": "汐止公園", "geometry\/coordinates\/0": 121.659807, "geometry\/coordinates\/1": 25.067782 }, "geometry": { "type": "Point", "coordinates": [ 121.659807, 25.067782 ] } },
{ "type": "Feature", "properties": { "name": "遠東科技中心", "geometry\/coordinates\/0": 121.650598, "geometry\/coordinates\/1": 25.063921 }, "geometry": { "type": "Point", "coordinates": [ 121.650598, 25.063921 ] } },
{ "type": "Feature", "properties": { "name": "松江新村", "geometry\/coordinates\/0": 121.5333498, "geometry\/coordinates\/1": 25.0612684 }, "geometry": { "type": "Point", "coordinates": [ 121.5333498, 25.0612684 ] } },
{ "type": "Feature", "properties": { "name": "汐止國小", "geometry\/coordinates\/0": 121.654922, "geometry\/coordinates\/1": 25.066251 }, "geometry": { "type": "Point", "coordinates": [ 121.654922, 25.066251 ] } },
{ "type": "Feature", "properties": { "name": "文德二號公園", "geometry\/coordinates\/0": 121.583667, "geometry\/coordinates\/1": 25.077078 }, "geometry": { "type": "Point", "coordinates": [ 121.583667, 25.077078 ] } },
{ "type": "Feature", "properties": { "name": "芝山岩", "geometry\/coordinates\/0": 121.5365234, "geometry\/coordinates\/1": 25.10131199 }, "geometry": { "type": "Point", "coordinates": [ 121.5365234, 25.10131199 ] } },
{ "type": "Feature", "properties": { "name": "石潭公園(成功)", "geometry\/coordinates\/0": 121.591015, "geometry\/coordinates\/1": 25.061041 }, "geometry": { "type": "Point", "coordinates": [ 121.591015, 25.061041 ] } },
{ "type": "Feature", "properties": { "name": "泰北中學", "geometry\/coordinates\/0": 121.5340303, "geometry\/coordinates\/1": 25.09775131 }, "geometry": { "type": "Point", "coordinates": [ 121.5340303, 25.09775131 ] } },
{ "type": "Feature", "properties": { "name": "內湖基湖路口", "geometry\/coordinates\/0": 121.5652273, "geometry\/coordinates\/1": 25.08198997 }, "geometry": { "type": "Point", "coordinates": [ 121.5652273, 25.08198997 ] } },
{ "type": "Feature", "properties": { "name": "陽明山國小", "geometry\/coordinates\/0": 121.5521, "geometry\/coordinates\/1": 25.11785 }, "geometry": { "type": "Point", "coordinates": [ 121.5521, 25.11785 ] } },
{ "type": "Feature", "properties": { "name": "下竹林", "geometry\/coordinates\/0": 121.5476245, "geometry\/coordinates\/1": 25.12977995 }, "geometry": { "type": "Point", "coordinates": [ 121.5476245, 25.12977995 ] } },
{ "type": "Feature", "properties": { "name": "南山高中", "geometry\/coordinates\/0": 121.505547, "geometry\/coordinates\/1": 24.999775 }, "geometry": { "type": "Point", "coordinates": [ 121.505547, 24.999775 ] } },
{ "type": "Feature", "properties": { "name": "秀峰高中(忠孝東路)", "geometry\/coordinates\/0": 121.662214, "geometry\/coordinates\/1": 25.066644 }, "geometry": { "type": "Point", "coordinates": [ 121.662214, 25.066644 ] } },
{ "type": "Feature", "properties": { "name": "松山車站", "geometry\/coordinates\/0": 121.5782061, "geometry\/coordinates\/1": 25.04980619 }, "geometry": { "type": "Point", "coordinates": [ 121.5782061, 25.04980619 ] } },
{ "type": "Feature", "properties": { "name": "大直美堤花園一", "geometry\/coordinates\/0": 121.5588327, "geometry\/coordinates\/1": 25.07983259 }, "geometry": { "type": "Point", "coordinates": [ 121.5588327, 25.07983259 ] } },
{ "type": "Feature", "properties": { "name": "敬業三路一", "geometry\/coordinates\/0": 121.5564305, "geometry\/coordinates\/1": 25.08316101 }, "geometry": { "type": "Point", "coordinates": [ 121.5564305, 25.08316101 ] } },
{ "type": "Feature", "properties": { "name": "汐科站北站", "geometry\/coordinates\/0": 121.6522, "geometry\/coordinates\/1": 25.064077 }, "geometry": { "type": "Point", "coordinates": [ 121.6522, 25.064077 ] } },
{ "type": "Feature", "properties": { "name": "昊天嶺", "geometry\/coordinates\/0": 121.6454, "geometry\/coordinates\/1": 25.06217 }, "geometry": { "type": "Point", "coordinates": [ 121.6454, 25.06217 ] } },
{ "type": "Feature", "properties": { "name": "金山泰安街口", "geometry\/coordinates\/0": 121.528803, "geometry\/coordinates\/1": 25.04 }, "geometry": { "type": "Point", "coordinates": [ 121.528803, 25.04 ] } },
{ "type": "Feature", "properties": { "name": "光華商場", "geometry\/coordinates\/0": 121.5315442, "geometry\/coordinates\/1": 25.0456428 }, "geometry": { "type": "Point", "coordinates": [ 121.5315442, 25.0456428 ] } },
{ "type": "Feature", "properties": { "name": "南港水廠", "geometry\/coordinates\/0": 121.615625, "geometry\/coordinates\/1": 25.049543 }, "geometry": { "type": "Point", "coordinates": [ 121.615625, 25.049543 ] } },
{ "type": "Feature", "properties": { "name": "中興二村", "geometry\/coordinates\/0": 121.5148597, "geometry\/coordinates\/1": 24.99642433 }, "geometry": { "type": "Point", "coordinates": [ 121.5148597, 24.99642433 ] } },
{ "type": "Feature", "properties": { "name": "九如里一", "geometry\/coordinates\/0": 121.6170236, "geometry\/coordinates\/1": 25.03770122 }, "geometry": { "type": "Point", "coordinates": [ 121.6170236, 25.03770122 ] } },
{ "type": "Feature", "properties": { "name": "廟美里", "geometry\/coordinates\/0": 121.5005133, "geometry\/coordinates\/1": 25.00280388 }, "geometry": { "type": "Point", "coordinates": [ 121.5005133, 25.00280388 ] } },
{ "type": "Feature", "properties": { "name": "陽明山國家公園管理處", "geometry\/coordinates\/0": 121.54612, "geometry\/coordinates\/1": 25.1552 }, "geometry": { "type": "Point", "coordinates": [ 121.54612, 25.1552 ] } },
{ "type": "Feature", "properties": { "name": "美麗華", "geometry\/coordinates\/0": 121.5581969, "geometry\/coordinates\/1": 25.08453844 }, "geometry": { "type": "Point", "coordinates": [ 121.5581969, 25.08453844 ] } },
{ "type": "Feature", "properties": { "name": "三總內湖站", "geometry\/coordinates\/0": 121.592095, "geometry\/coordinates\/1": 25.071852 }, "geometry": { "type": "Point", "coordinates": [ 121.592095, 25.071852 ] } },
{ "type": "Feature", "properties": { "name": "內湖行政大樓", "geometry\/coordinates\/0": 121.5889192, "geometry\/coordinates\/1": 25.06893468 }, "geometry": { "type": "Point", "coordinates": [ 121.5889192, 25.06893468 ] } },
{ "type": "Feature", "properties": { "name": "外雙溪(至善)", "geometry\/coordinates\/0": 121.5470058, "geometry\/coordinates\/1": 25.09823969 }, "geometry": { "type": "Point", "coordinates": [ 121.5470058, 25.09823969 ] } },
{ "type": "Feature", "properties": { "name": "劍潭國小", "geometry\/coordinates\/0": 121.5227513, "geometry\/coordinates\/1": 25.08106627 }, "geometry": { "type": "Point", "coordinates": [ 121.5227513, 25.08106627 ] } },
{ "type": "Feature", "properties": { "name": "南港分局(向陽)", "geometry\/coordinates\/0": 121.5937887, "geometry\/coordinates\/1": 25.05574836 }, "geometry": { "type": "Point", "coordinates": [ 121.5937887, 25.05574836 ] } },
{ "type": "Feature", "properties": { "name": "東湖站", "geometry\/coordinates\/0": 121.6030148, "geometry\/coordinates\/1": 25.06116745 }, "geometry": { "type": "Point", "coordinates": [ 121.6030148, 25.06116745 ] } },
{ "type": "Feature", "properties": { "name": "湖興", "geometry\/coordinates\/0": 121.5906612, "geometry\/coordinates\/1": 25.06803087 }, "geometry": { "type": "Point", "coordinates": [ 121.5906612, 25.06803087 ] } },
{ "type": "Feature", "properties": { "name": "崇義高中(五堵車站)", "geometry\/coordinates\/0": 121.667579, "geometry\/coordinates\/1": 25.076937 }, "geometry": { "type": "Point", "coordinates": [ 121.667579, 25.076937 ] } },
{ "type": "Feature", "properties": { "name": "新安", "geometry\/coordinates\/0": 121.550228, "geometry\/coordinates\/1": 25.124863 }, "geometry": { "type": "Point", "coordinates": [ 121.550228, 25.124863 ] } },
{ "type": "Feature", "properties": { "name": "教師中心", "geometry\/coordinates\/0": 121.547813, "geometry\/coordinates\/1": 25.150204 }, "geometry": { "type": "Point", "coordinates": [ 121.547813, 25.150204 ] } }
]
}
