{
"type": "FeatureCollection",
"name": "Rush hour",
"crs": { "type": "name", "properties": { "name": "urn:ogc:def:crs:OGC:1.3:CRS84" } },
"features": [
{ "type": "Feature", "properties": { "x": 121.5810066, "y": 25.08468198, "name": "西湖園" }, "geometry": { "type": "Point", "coordinates": [ 121.5810066, 25.08468198 ] } },
{ "type": "Feature", "properties": { "x": 121.5601662, "y": 25.0798188, "name": "濱江國中" }, "geometry": { "type": "Point", "coordinates": [ 121.5601662, 25.0798188 ] } },
{ "type": "Feature", "properties": { "x": 121.576598, "y": 25.050168, "name": "松山車站(八德)" }, "geometry": { "type": "Point", "coordinates": [ 121.576598, 25.050168 ] } },
{ "type": "Feature", "properties": { "x": 121.5809119, "y": 25.05092253, "name": "玉成里" }, "geometry": { "type": "Point", "coordinates": [ 121.5809119, 25.05092253 ] } },
{ "type": "Feature", "properties": { "x": 121.6649754, "y": 25.0716573, "name": "國泰醫院" }, "geometry": { "type": "Point", "coordinates": [ 121.6649754, 25.0716573 ] } },
{ "type": "Feature", "properties": { "x": 121.56629, "y": 25.04124, "name": "捷運市政府站" }, "geometry": { "type": "Point", "coordinates": [ 121.56629, 25.04124 ] } },
{ "type": "Feature", "properties": { "x": 121.6472189, "y": 25.0628093, "name": "汐科站南站" }, "geometry": { "type": "Point", "coordinates": [ 121.6472189, 25.0628093 ] } },
{ "type": "Feature", "properties": { "x": 121.5821212, "y": 25.06808488, "name": "時報廣場" }, "geometry": { "type": "Point", "coordinates": [ 121.5821212, 25.06808488 ] } },
{ "type": "Feature", "properties": { "x": 121.532693, "y": 25.040288, "name": "捷運忠孝新生站" }, "geometry": { "type": "Point", "coordinates": [ 121.532693, 25.040288 ] } },
{ "type": "Feature", "properties": { "x": 121.6616891, "y": 25.06917666, "name": "汐止" }, "geometry": { "type": "Point", "coordinates": [ 121.6616891, 25.06917666 ] } },
{ "type": "Feature", "properties": { "x": 121.593165, "y": 25.050346, "name": "捷運昆陽站" }, "geometry": { "type": "Point", "coordinates": [ 121.593165, 25.050346 ] } },
{ "type": "Feature", "properties": { "x": 121.6161708, "y": 25.03500483, "name": "九如里二" }, "geometry": { "type": "Point", "coordinates": [ 121.6161708, 25.03500483 ] } },
{ "type": "Feature", "properties": { "x": 121.5495151, "y": 25.14947573, "name": "錫安堂" }, "geometry": { "type": "Point", "coordinates": [ 121.5495151, 25.14947573 ] } },
{ "type": "Feature", "properties": { "x": 121.6158659, "y": 25.05180369, "name": "誠正國中" }, "geometry": { "type": "Point", "coordinates": [ 121.6158659, 25.05180369 ] } },
{ "type": "Feature", "properties": { "x": 121.615639, "y": 25.045074, "name": "中研新村" }, "geometry": { "type": "Point", "coordinates": [ 121.615639, 25.045074 ] } },
{ "type": "Feature", "properties": { "x": 121.5027697, "y": 24.99969546, "name": "中和派出所" }, "geometry": { "type": "Point", "coordinates": [ 121.5027697, 24.99969546 ] } },
{ "type": "Feature", "properties": { "x": 121.586538, "y": 25.08856804, "name": "金龍寺" }, "geometry": { "type": "Point", "coordinates": [ 121.586538, 25.08856804 ] } },
{ "type": "Feature", "properties": { "x": 121.551896, "y": 25.08586247, "name": "自強隧道" }, "geometry": { "type": "Point", "coordinates": [ 121.551896, 25.08586247 ] } },
{ "type": "Feature", "properties": { "x": 121.59054, "y": 25.085651, "name": "碧山岩" }, "geometry": { "type": "Point", "coordinates": [ 121.59054, 25.085651 ] } },
{ "type": "Feature", "properties": { "x": 121.5952331, "y": 25.05295138, "name": "南港高中" }, "geometry": { "type": "Point", "coordinates": [ 121.5952331, 25.05295138 ] } },
{ "type": "Feature", "properties": { "x": 121.577205, "y": 25.063161, "name": "新湖三路口(台北花市)" }, "geometry": { "type": "Point", "coordinates": [ 121.577205, 25.063161 ] } },
{ "type": "Feature", "properties": { "x": 121.5676949, "y": 25.06018904, "name": "民生國中" }, "geometry": { "type": "Point", "coordinates": [ 121.5676949, 25.06018904 ] } },
{ "type": "Feature", "properties": { "x": 121.566269, "y": 25.062445, "name": "新益里" }, "geometry": { "type": "Point", "coordinates": [ 121.566269, 25.062445 ] } },
{ "type": "Feature", "properties": { "x": 121.581993, "y": 25.056132, "name": "週美里一" }, "geometry": { "type": "Point", "coordinates": [ 121.581993, 25.056132 ] } },
{ "type": "Feature", "properties": { "x": 121.5768304, "y": 25.08405797, "name": "麗山高中(環山)" }, "geometry": { "type": "Point", "coordinates": [ 121.5768304, 25.08405797 ] } },
{ "type": "Feature", "properties": { "x": 121.5717, "y": 25.08607, "name": "環山路" }, "geometry": { "type": "Point", "coordinates": [ 121.5717, 25.08607 ] } },
{ "type": "Feature", "properties": { "x": 121.5900055, "y": 25.07696845, "name": "方濟中學" }, "geometry": { "type": "Point", "coordinates": [ 121.5900055, 25.07696845 ] } },
{ "type": "Feature", "properties": { "x": 121.65913, "y": 25.06478, "name": "汐止行政中心" }, "geometry": { "type": "Point", "coordinates": [ 121.65913, 25.06478 ] } },
{ "type": "Feature", "properties": { "x": 121.657339, "y": 25.063652, "name": "汐止農會" }, "geometry": { "type": "Point", "coordinates": [ 121.657339, 25.063652 ] } },
{ "type": "Feature", "properties": { "x": 121.659807, "y": 25.067782, "name": "汐止公園" }, "geometry": { "type": "Point", "coordinates": [ 121.659807, 25.067782 ] } },
{ "type": "Feature", "properties": { "x": 121.650598, "y": 25.063921, "name": "遠東科技中心" }, "geometry": { "type": "Point", "coordinates": [ 121.650598, 25.063921 ] } },
{ "type": "Feature", "properties": { "x": 121.5333498, "y": 25.0612684, "name": "松江新村" }, "geometry": { "type": "Point", "coordinates": [ 121.5333498, 25.0612684 ] } },
{ "type": "Feature", "properties": { "x": 121.654922, "y": 25.066251, "name": "汐止國小" }, "geometry": { "type": "Point", "coordinates": [ 121.654922, 25.066251 ] } },
{ "type": "Feature", "properties": { "x": 121.583667, "y": 25.077078, "name": "文德二號公園" }, "geometry": { "type": "Point", "coordinates": [ 121.583667, 25.077078 ] } },
{ "type": "Feature", "properties": { "x": 121.5365234, "y": 25.10131199, "name": "芝山岩" }, "geometry": { "type": "Point", "coordinates": [ 121.5365234, 25.10131199 ] } },
{ "type": "Feature", "properties": { "x": 121.591015, "y": 25.061041, "name": "石潭公園(成功)" }, "geometry": { "type": "Point", "coordinates": [ 121.591015, 25.061041 ] } },
{ "type": "Feature", "properties": { "x": 121.5340303, "y": 25.09775131, "name": "泰北中學" }, "geometry": { "type": "Point", "coordinates": [ 121.5340303, 25.09775131 ] } },
{ "type": "Feature", "properties": { "x": 121.5652273, "y": 25.08198997, "name": "內湖基湖路口" }, "geometry": { "type": "Point", "coordinates": [ 121.5652273, 25.08198997 ] } },
{ "type": "Feature", "properties": { "x": 121.5521, "y": 25.11785, "name": "陽明山國小" }, "geometry": { "type": "Point", "coordinates": [ 121.5521, 25.11785 ] } },
{ "type": "Feature", "properties": { "x": 121.5476245, "y": 25.12977995, "name": "下竹林" }, "geometry": { "type": "Point", "coordinates": [ 121.5476245, 25.12977995 ] } },
{ "type": "Feature", "properties": { "x": 121.505547, "y": 24.999775, "name": "南山高中" }, "geometry": { "type": "Point", "coordinates": [ 121.505547, 24.999775 ] } },
{ "type": "Feature", "properties": { "x": 121.662214, "y": 25.066644, "name": "秀峰高中(忠孝東路)" }, "geometry": { "type": "Point", "coordinates": [ 121.662214, 25.066644 ] } },
{ "type": "Feature", "properties": { "x": 121.5782061, "y": 25.04980619, "name": "松山車站" }, "geometry": { "type": "Point", "coordinates": [ 121.5782061, 25.04980619 ] } },
{ "type": "Feature", "properties": { "x": 121.5588327, "y": 25.07983259, "name": "大直美堤花園一" }, "geometry": { "type": "Point", "coordinates": [ 121.5588327, 25.07983259 ] } },
{ "type": "Feature", "properties": { "x": 121.5564305, "y": 25.08316101, "name": "敬業三路一" }, "geometry": { "type": "Point", "coordinates": [ 121.5564305, 25.08316101 ] } },
{ "type": "Feature", "properties": { "x": 121.6522, "y": 25.064077, "name": "汐科站北站" }, "geometry": { "type": "Point", "coordinates": [ 121.6522, 25.064077 ] } },
{ "type": "Feature", "properties": { "x": 121.6454, "y": 25.06217, "name": "昊天嶺" }, "geometry": { "type": "Point", "coordinates": [ 121.6454, 25.06217 ] } },
{ "type": "Feature", "properties": { "x": 121.528803, "y": 25.04, "name": "金山泰安街口" }, "geometry": { "type": "Point", "coordinates": [ 121.528803, 25.04 ] } },
{ "type": "Feature", "properties": { "x": 121.5315442, "y": 25.0456428, "name": "光華商場" }, "geometry": { "type": "Point", "coordinates": [ 121.5315442, 25.0456428 ] } },
{ "type": "Feature", "properties": { "x": 121.615625, "y": 25.049543, "name": "南港水廠" }, "geometry": { "type": "Point", "coordinates": [ 121.615625, 25.049543 ] } },
{ "type": "Feature", "properties": { "x": 121.5148597, "y": 24.99642433, "name": "中興二村" }, "geometry": { "type": "Point", "coordinates": [ 121.5148597, 24.99642433 ] } },
{ "type": "Feature", "properties": { "x": 121.6170236, "y": 25.03770122, "name": "九如里一" }, "geometry": { "type": "Point", "coordinates": [ 121.6170236, 25.03770122 ] } },
{ "type": "Feature", "properties": { "x": 121.5005133, "y": 25.00280388, "name": "廟美里" }, "geometry": { "type": "Point", "coordinates": [ 121.5005133, 25.00280388 ] } },
{ "type": "Feature", "properties": { "x": 121.54612, "y": 25.1552, "name": "陽明山國家公園管理處" }, "geometry": { "type": "Point", "coordinates": [ 121.54612, 25.1552 ] } },
{ "type": "Feature", "properties": { "x": 121.5581969, "y": 25.08453844, "name": "美麗華" }, "geometry": { "type": "Point", "coordinates": [ 121.5581969, 25.08453844 ] } },
{ "type": "Feature", "properties": { "x": 121.592095, "y": 25.071852, "name": "三總內湖站" }, "geometry": { "type": "Point", "coordinates": [ 121.592095, 25.071852 ] } },
{ "type": "Feature", "properties": { "x": 121.5889192, "y": 25.06893468, "name": "內湖行政大樓" }, "geometry": { "type": "Point", "coordinates": [ 121.5889192, 25.06893468 ] } },
{ "type": "Feature", "properties": { "x": 121.5470058, "y": 25.09823969, "name": "外雙溪(至善)" }, "geometry": { "type": "Point", "coordinates": [ 121.5470058, 25.09823969 ] } },
{ "type": "Feature", "properties": { "x": 121.5227513, "y": 25.08106627, "name": "劍潭國小" }, "geometry": { "type": "Point", "coordinates": [ 121.5227513, 25.08106627 ] } },
{ "type": "Feature", "properties": { "x": 121.5937887, "y": 25.05574836, "name": "南港分局(向陽)" }, "geometry": { "type": "Point", "coordinates": [ 121.5937887, 25.05574836 ] } },
{ "type": "Feature", "properties": { "x": 121.6030148, "y": 25.06116745, "name": "東湖站" }, "geometry": { "type": "Point", "coordinates": [ 121.6030148, 25.06116745 ] } },
{ "type": "Feature", "properties": { "x": 121.5906612, "y": 25.06803087, "name": "湖興" }, "geometry": { "type": "Point", "coordinates": [ 121.5906612, 25.06803087 ] } },
{ "type": "Feature", "properties": { "x": 121.667579, "y": 25.076937, "name": "崇義高中(五堵車站)" }, "geometry": { "type": "Point", "coordinates": [ 121.667579, 25.076937 ] } },
{ "type": "Feature", "properties": { "x": 121.550228, "y": 25.124863, "name": "新安" }, "geometry": { "type": "Point", "coordinates": [ 121.550228, 25.124863 ] } },
{ "type": "Feature", "properties": { "x": 121.547813, "y": 25.150204, "name": "教師中心" }, "geometry": { "type": "Point", "coordinates": [ 121.547813, 25.150204 ] } }
]
}
